[
  {
    "key" : "VTS_MKT",
    "latitude" : -8.03529,
    "longitude" : -34.94984,
    "name" : "Vitasense"
  },
  {
    "key" : "BVAA_COLETOR",
    "latitude" : -8.03983,
    "longitude" : -34.88372,
    "name" : "Bruno Vanderlei"
  },
  {
    "key" : "LINK_FIREWALL",
    "latitude" : -8.1233833,
    "longitude" : -34.8993987,
    "name" : "LINK FORMENTO"
  },
  {
    "key" : "UNI_MKT_MATRIZ",
    "latitude" : -8.061441097602525,
    "longitude" : -34.89809185994711,
    "name" : "Union Matriz"
  },
  {
    "key" : "CDB_MKT",
    "latitude" : -8.07117,
    "longitude" : -34.88419,
    "name" : "Comando das Bombas"
  },
  {
    "key" : "LPR_FIREWALL",
    "latitude" : -8.11148,
    "longitude" : -34.89273,
    "name" : "Comando das Bombas"
  },
  {
    "key" : "MAG_MKT",
    "latitude" : -8.06522,
    "longitude" : -34.89284,
    "name" : "Magalhaes Advogados"
  },
  {
    "key" : "MD_MKT",
    "latitude" : -8.03600,
    "longitude" : -34.95005,
    "name" : "MD Locações"
  },
  {
    "key" : "MBRA_MKT",
    "latitude" : -8.04790,
    "longitude" : -34.91150,
    "name" : "Melo Brasil"
  },
  {
    "key" : "NB-MTZ_MKT",
    "latitude" : -8.11818, 
    "longitude" : -35.29442,
    "name" : "Novo Borba"
  },
  {
    "key" : "MEN_SRV01",
    "latitude" : -8.0415, 
    "longitude" : -34.89818,
    "name" : "Mendes CA"
  },
  {
    "key" : "PDCA_SERVER",
    "latitude" : -8.02635, 
    "longitude" : -34.90676,
    "name" : "PDCA Engenharia"
  },
  {
    "key" : "RBS_MKT-NEW",
    "latitude" : -8.08978, 
    "longitude" : -34.88186,
    "name" : "Rego Barros ADV"
  },
  {
    "key" : "JAN-FIREWALL",
    "latitude" : -8.06184, 
    "longitude" : -34.90715,
    "name" : "Sistema Contabil Janio"
  },
  {
    "key" : "SADR-SERVIDOR",
    "latitude" : -8.06165, 
    "longitude" : -34.90641,
    "name" : "Sistema Contabil Adriana"
  },
  {
    "key" : "SED_SRV01",
    "latitude" : -5.35343, 
    "longitude" : -49.10454,
    "name" : "Sedue Contabilidade"
  },
  {
    "key" : "CDBT_MKT_MTRIZ",
    "latitude" : -8.05794, 
    "longitude" : -34.90727,
    "name" : "Casa das Baterias"
  },
  {
    "key" : "CDBT_MKT_IPSEP",
    "latitude" : -8.10631, 
    "longitude" : -34.92753,
    "name" : "Casa das Baterias"
  }
]
