[
  {
    "key" : "VTS_MKT",
    "latitude" : -8.03529,
    "longitude" : -34.94984,
    "name" : "Vitasense"
  },
  {
    "key" : "BVAA_COLETOR",
    "latitude" : -8.03983,
    "longitude" : -34.88372,
    "name" : "Bruno Vanderlei"
  },
  {
    "key" : "LINK_FIREWALL",
    "latitude" : -8.1233833,
    "longitude" : -34.8993987,
    "name" : "LINK FORMENTO"
  },
  {
    "key" : "UNI_MKT_MATRIZ",
    "latitude" : -8.061441097602525,
    "longitude" : -34.89809185994711,
    "name" : "Union Matriz"
  },
  {
    "key" : "CDB_MKT",
    "latitude" : -8.07117,
    "longitude" : -34.88419,
    "name" : "Comando das Bombas"
  },
  {
    "key" : "LPR_FIREWALL",
    "latitude" : -8.11148,
    "longitude" : -34.89273,
    "name" : "Comando das Bombas"
  },
  {
    "key" : "MAG_MKT",
    "latitude" : -8.06522,
    "longitude" : -34.89284,
    "name" : "Magalhaes Advogados"
  },
  {
    "key" : "MD_MKT",
    "latitude" : -8.03600,
    "longitude" : -34.95005,
    "name" : "MD Locações"
  },
  {
    "key" : "MBRA_MKT",
    "latitude" : -8.04790,
    "longitude" : -34.91150,
    "name" : "Melo Brasil"
  },
  {
    "key" : "NB-MTZ_MKT",
    "latitude" : -8.10850,
    "longitude" : -34.95787,
    "name" : "Novo Borba"
  }    
]
